[
  {
    "name": "KR단미래어린이집",
    "health_center": "강서구보건소",
    "address": "부산광역시 강서구 명지오션시티9로 36",
    "lat": 35.088122,
    "lng": 128.90072
  },
  {
    "name": "국공립서연정어린이집",
    "health_center": "강서구보건소",
    "address": "부산광역시 강서구 대저로255번길 15(대저1동)",
    "lat": 35.214676,
    "lng": 128.980623
  },
  {
    "name": "글로벌새싹어린이집",
    "health_center": "강서구보건소",
    "address": "부산광역시 강서구 명지오션시티9로 19",
    "lat": 35.088753,
    "lng": 128.899327
  },
  {
    "name": "기린유치원",
    "health_center": "강서구보건소",
    "address": "부산광역시 강서구 과학산단로 334번 다길 59",
    "lat": 35.149916,
    "lng": 128.836158
  },
  {
    "name": "녹산유치원",
    "health_center": "강서구보건소",
    "address": "부산광역시 강서구 과학산단2로 20번길 55",
    "lat": 35.151286,
    "lng": 128.836852
  },
  {
    "name": "두산사랑나무어린이집",
    "health_center": "강서구보건소",
    "address": "부산광역시 강서구 명지오션시티11로 22, 109동 104호",
    "lat": 35.083261,
    "lng": 128.897777
  },
  {
    "name": "링컨어린이집",
    "health_center": "강서구보건소",
    "address": "부산광역시 강서구 명지오션시티10로 16, 211동 1층 보육실",
    "lat": 35.085498,
    "lng": 128.897761
  },
  {
    "name": "명지가온유치원",
    "health_center": "강서구보건소",
    "address": "부산광역시 강서구 명지오션시티6로 69",
    "lat": 35.080294,
    "lng": 128.908394
  },
  {
    "name": "명지더샵2단지어린이집",
    "health_center": "강서구보건소",
    "address": "부산광역시 강서구 명지국제7로 37, 309동 3-4라인 1층 바깥 옆쪽",
    "lat": 35.0982,
    "lng": 128.906321
  },
  {
    "name": "명지더샵3단지어린이집",
    "health_center": "강서구보건소",
    "address": "부산광역시 강서구 명지국제2로 41 1층 관리동",
    "lat": 35.095552,
    "lng": 128.906037
  },
  {
    "name": "명지유치원",
    "health_center": "강서구보건소",
    "address": "부산광역시 강서구 명지국제6로 296",
    "lat": 35.101786,
    "lng": 128.92438
  },
  {
    "name": "명지이편한어린이집",
    "health_center": "강서구보건소",
    "address": "부산광역시 강서구 명지국제2로 80, 상가1층",
    "lat": 35.098649,
    "lng": 128.909376
  },
  {
    "name": "부산신호1차부영사랑으로어린이집",
    "health_center": "강서구보건소",
    "address": "부산광역시 강서구 신호산단3로 27, 104동 관리동",
    "lat": 35.088097,
    "lng": 128.875276
  },
  {
    "name": "부산신호2차부영사랑으로어린이집",
    "health_center": "강서구보건소",
    "address": "부산광역시 강서구 신호산단4로 27, 207동 1차(신호동, 부영2차)",
    "lat": 35.086562,
    "lng": 128.874773
  },
  {
    "name": "부산신호5차부영사랑으로어린이집",
    "health_center": "강서구보건소",
    "address": "부산광역시 강서구 신호산단1로 101, 515동 옆(안쪽)",
    "lat": 35.08235,
    "lng": 128.87585
  },
  {
    "name": "사랑가득어린이집",
    "health_center": "강서구보건소",
    "address": "부산광역시 강서구 명지오션시티1로 155, 110동 202호",
    "lat": 35.079917,
    "lng": 128.901065
  },
  {
    "name": "삼정그린어린이집",
    "health_center": "강서구보건소",
    "address": "부산광역시 강서구 명지오션시티 10로 114 112동 903호",
    "lat": 35.086407,
    "lng": 128.908716
  },
  {
    "name": "아이키즈어린이집",
    "health_center": "강서구보건소",
    "address": "부산광역시 강서구 명지국제7로 133 중흥S클래스 관리동(109동)",
    "lat": 35.098005,
    "lng": 128.915546
  },
  {
    "name": "오션타운어린이집",
    "health_center": "강서구보건소",
    "address": "부산광역시 강서구 명지국제7로 111",
    "lat": 35.097357,
    "lng": 128.913789
  },
  {
    "name": "우방아이유쉘어린이집",
    "health_center": "강서구보건소",
    "address": "부산광역시 강서구 화전산단4로 74, 111동 3~4라인 1층",
    "lat": 35.109769,
    "lng": 128.887023
  },
  {
    "name": "지사어린이집",
    "health_center": "강서구보건소",
    "address": "부산광역시 강서구 과학산단2로 20번길 35",
    "lat": 35.151484,
    "lng": 128.833563
  },
  {
    "name": "토마토어린이집",
    "health_center": "강서구보건소",
    "address": "부산광역시 강서구 명지국제2로 41 302동 103호",
    "lat": 35.094792,
    "lng": 128.905787
  },
  {
    "name": "하늘어린이집",
    "health_center": "강서구보건소",
    "address": "부산광역시 강서구 공항진입로42번길 20",
    "lat": 35.183981,
    "lng": 128.950508
  },
  {
    "name": "해바라기어린이집",
    "health_center": "강서구보건소",
    "address": "부산광역시 강서구 신호산단3로 55, 109동 104호(신호동, 윌더하임@)",
    "lat": 35.088144,
    "lng": 128.879011
  },
  {
    "name": "호반2차어린이집",
    "health_center": "강서구보건소",
    "address": "부산광역시 강서구 명지국제5로 89 1층 관리동 (명지1동, 호반베르디움2차@) 203동 가까이",
    "lat": 35.102139,
    "lng": 128.919532
  },
  {
    "name": "가락초등학교",
    "health_center": "강서구보건소",
    "address": "부산광역시 강서구 호계로 41(죽림동)",
    "lat": 35.195659,
    "lng": 128.896322
  },
  {
    "name": "명문초등학교",
    "health_center": "강서구보건소",
    "address": "부산광역시 강서구 명지국제8로 195",
    "lat": 35.099219,
    "lng": 128.913988
  },
  {
    "name": "공립구서어린이집",
    "health_center": "금정구보건소",
    "address": "부산광역시 금정구 금강로 503 롯데캐슬골드 2단지내(구서동)",
    "lat": 35.250115,
    "lng": 129.087251
  },
  {
    "name": "구서SK뷰해야어린이집",
    "health_center": "금정구보건소",
    "address": "부산광역시 금정구 금샘로246번길 18 구서sk뷰",
    "lat": 35.244417,
    "lng": 129.085754
  },
  {
    "name": "금정구청어린이집",
    "health_center": "금정구보건소",
    "address": "부산광역시 금정구 중앙대로 1777 금정구청내 금정구청어린이집",
    "lat": 35.24204,
    "lng": 129.09245
  },
  {
    "name": "금정산SK어린이집",
    "health_center": "금정구보건소",
    "address": "부산광역시 금정구 식물원로 64 108동102호",
    "lat": 35.226665,
    "lng": 129.080352
  },
  {
    "name": "꼬마대통령어린이집",
    "health_center": "금정구보건소",
    "address": "부산광역시 금정구 동현로 50-4",
    "lat": 35.222457,
    "lng": 129.094018
  },
  {
    "name": "대우어린이집",
    "health_center": "금정구보건소",
    "address": "부산광역시 금정구 부산대학로 10",
    "lat": 35.233067,
    "lng": 129.089975
  },
  {
    "name": "늘푸른어린이집",
    "health_center": "금정구보건소",
    "address": "부산광역시 금정구 학산로 13번길 6",
    "lat": 35.265073,
    "lng": 129.091077
  },
  {
    "name": "대우유치원",
    "health_center": "금정구보건소",
    "address": "부산광역시 금정구 부산대학로 10",
    "lat": 35.232068,
    "lng": 129.090342
  },
  {
    "name": "벽산포레어린이집",
    "health_center": "금정구보건소",
    "address": "부산광역시 금정구 금강로 225, 벽산블루밍장전디자인시티 210동 지상1층",
    "lat": 35.228713,
    "lng": 129.082965
  },
  {
    "name": "삼한골든뷰어린이집",
    "health_center": "금정구보건소",
    "address": "부산광역시 금정구 중앙대로 1629번길 16",
    "lat": 35.230546,
    "lng": 129.090272
  },
  {
    "name": "쌍용예가어린이집",
    "health_center": "금정구보건소",
    "address": "부산광역시 금정구 금샘로 262, 쌍용예가2단지 관리동내",
    "lat": 35.246585,
    "lng": 129.086737
  },
  {
    "name": "수연어린이집",
    "health_center": "금정구보건소",
    "address": "부산광역시 금정구 금샘로18번길 79-21",
    "lat": 35.23027,
    "lng": 129.078469
  },
  {
    "name": "아이누리어린이집",
    "health_center": "금정구보건소",
    "address": "부산광역시 금정구 금강로 453번길 24",
    "lat": 35.24823,
    "lng": 129.087213
  },
  {
    "name": "아이미래어린이집",
    "health_center": "금정구보건소",
    "address": "부산광역시 금정구 금강로379번길 50, 관리동(장전동, 금정산 쌍용예가아파트)",
    "lat": 35.242933,
    "lng": 129.084443
  },
  {
    "name": "아인유치원",
    "health_center": "금정구보건소",
    "address": "부산광역시 금정구 금정도서관로 5-4",
    "lat": 35.27279,
    "lng": 129.093726
  },
  {
    "name": "영재타운어린이집",
    "health_center": "금정구보건소",
    "address": "부산광역시 금정구 식물원로 64",
    "lat": 35.227403,
    "lng": 129.079332
  },
  {
    "name": "예가람어린이집",
    "health_center": "금정구보건소",
    "address": "부산광역시 금정구 수림로72번길 21, 금정산2차 쌍용예가아파트 관리동",
    "lat": 35.241121,
    "lng": 129.083954
  },
  {
    "name": "장전제일교회어린이집",
    "health_center": "금정구보건소",
    "address": "부산광역시 금정구 금정로50",
    "lat": 35.229032,
    "lng": 129.086492
  },
  {
    "name": "지산어린이집",
    "health_center": "금정구보건소",
    "address": "부산광역시 금정구 기찰로 108번길 48",
    "lat": 35.242116,
    "lng": 129.095975
  },
  {
    "name": "푸른하늘어린이집",
    "health_center": "금정구보건소",
    "address": "부산광역시 금정구 금강로 379번길 50, 금정산 쌍용예가 1차 104동 104호",
    "lat": 35.2429,
    "lng": 129.084501
  },
  {
    "name": "해맑은어린이집",
    "health_center": "금정구보건소",
    "address": "부산광역시 금정구 금단로 113-13",
    "lat": 35.260057,
    "lng": 129.092134
  },
  {
    "name": "동현중학교",
    "health_center": "금정구보건소",
    "address": "부산광역시 금정구 서동로 50",
    "lat": 35.21873,
    "lng": 129.092303
  },
  {
    "name": "금정초등학교",
    "health_center": "금정구보건소",
    "address": "부산광역시 금정구 식물원로44번길 46",
    "lat": 35.227862,
    "lng": 129.08465
  },
  {
    "name": "동상초등학교",
    "health_center": "금정구보건소",
    "address": "부산광역시 금정구 옥봉로 5",
    "lat": 35.211298,
    "lng": 129.106949
  },
  {
    "name": "서동초등학교",
    "health_center": "금정구보건소",
    "address": "부산광역시 금정구 동현로 147",
    "lat": 35.219373,
    "lng": 129.097814
  },
  {
    "name": "장전초등학교",
    "health_center": "금정구보건소",
    "address": "부산광역시 금정구 수림로 90",
    "lat": 35.241232,
    "lng": 129.08264
  },
  {
    "name": "브니엘예술중학교",
    "health_center": "금정구보건소",
    "address": "부산광역시 금정구 체육공원로 154",
    "lat": 35.254853,
    "lng": 129.103927
  },
  {
    "name": "브니엘예술고등학교",
    "health_center": "금정구보건소",
    "address": "부산광역시 금정구 체육공원로 154",
    "lat": 35.254853,
    "lng": 129.103927
  },
  {
    "name": "가온어린이집",
    "health_center": "기장군보건소(정관보건지소)",
    "address": "부산광역시 기장군 정관읍 정관4로 24 109동 104호",
    "lat": 35.324399,
    "lng": 129.169043
  },
  {
    "name": "가화숲어린이집",
    "health_center": "기장군보건소(정관보건지소)",
    "address": "부산광역시 기장군 정관읍 구연방곡로 120",
    "lat": 35.322142,
    "lng": 129.189574
  },
  {
    "name": "기장군종합사회복지관어린이집",
    "health_center": "기장군보건소(정관보건지소)",
    "address": "부산광역시 기장군 기장읍 차성로 206",
    "lat": 35.235846,
    "lng": 129.213775
  },
  {
    "name": "기장웨이브리즈어린이집",
    "health_center": "기장군보건소(정관보건지소)",
    "address": "부산광역시 기장군 기장읍 대변로 43 관리동",
    "lat": 35.233286,
    "lng": 129.221674
  },
  {
    "name": "늘푸른어린이집",
    "health_center": "기장군보건소(정관보건지소)",
    "address": "부산광역시 기장군 기장읍 차성서로123 서부주공아파트 관리동",
    "lat": 35.244661,
    "lng": 129.209445
  },
  {
    "name": "동일3차어린이집",
    "health_center": "기장군보건소(정관보건지소)",
    "address": "부산광역시 기장군 정관읍 모전1길9 동일3차 보육시설동 (312동 앞)",
    "lat": 35.337224,
    "lng": 129.166165
  },
  {
    "name": "산새소리어린이집",
    "health_center": "기장군보건소(정관보건지소)",
    "address": "부산광역시 기장군 기장읍 차성남로 1-4",
    "lat": 35.241496,
    "lng": 129.208319
  },
  {
    "name": "일광대성베르힐어린이집",
    "health_center": "기장군보건소(정관보건지소)",
    "address": "부산광역시 기장군 일광읍 해빛5로 14",
    "lat": 35.259673,
    "lng": 129.219847
  },
  {
    "name": "일광어린이집",
    "health_center": "기장군보건소(정관보건지소)",
    "address": "부산광역시 기장군 일광읍 이천길 31-12",
    "lat": 35.265233,
    "lng": 129.237567
  },
  {
    "name": "일광이지더원2차포레온어린이집",
    "health_center": "기장군보건소(정관보건지소)",
    "address": "부산광역시 기장군 일광읍 해빛5로 26",
    "lat": 35.259312,
    "lng": 129.221694
  },
  {
    "name": "일광자이푸르지오1어린이집",
    "health_center": "기장군보건소(정관보건지소)",
    "address": "부산광역시 기장군 일광읍 해빛로 39-15",
    "lat": 35.265565,
    "lng": 129.222377
  },
  {
    "name": "일광한신더휴센트럴포레1어린이집",
    "health_center": "기장군보건소(정관보건지소)",
    "address": "부산광역시 기장군 일광읍 해빛1로 62",
    "lat": 35.26133,
    "lng": 129.222626
  },
  {
    "name": "일광한신더휴센트럴포레2어린이집",
    "health_center": "기장군보건소(정관보건지소)",
    "address": "부산광역시 기장군 해빛3로 62",
    "lat": 35.262261,
    "lng": 129.220277
  },
  {
    "name": "정관2어린이집",
    "health_center": "기장군보건소(정관보건지소)",
    "address": "부산광역시 기장군 정관읍 정관2로 24",
    "lat": 35.332071,
    "lng": 129.164446
  },
  {
    "name": "정관어린이집",
    "health_center": "기장군보건소(정관보건지소)",
    "address": "부산광역시 기장군 정관읍 정관4로 23",
    "lat": 35.326441,
    "lng": 129.167941
  },
  {
    "name": "철마어린이집",
    "health_center": "기장군보건소(정관보건지소)",
    "address": "부산광역시 기장군 철마면 곰내길 13",
    "lat": 35.275998,
    "lng": 129.150379
  },
  {
    "name": "칠암어린이집",
    "health_center": "기장군보건소(정관보건지소)",
    "address": "부산광역시 기장군 일광읍 박영준길 18",
    "lat": 35.299476,
    "lng": 129.25604
  },
  {
    "name": "키즈클럽해맑은어린이집",
    "health_center": "기장군보건소(정관보건지소)",
    "address": "부산광역시 기장군 기장읍 청강로73번길7",
    "lat": 35.238463,
    "lng": 129.221675
  },
  {
    "name": "한성어린이집",
    "health_center": "기장군보건소(정관보건지소)",
    "address": "부산광역시 기장군 정관읍 정관덕산1길 22",
    "lat": 35.324092,
    "lng": 129.185191
  },
  {
    "name": "가동초등학교",
    "health_center": "기장군보건소(정관보건지소)",
    "address": "부산광역시 기장군 정관읍 정관5로 100",
    "lat": 35.326409,
    "lng": 129.178521
  },
  {
    "name": "철마초등학교",
    "health_center": "기장군보건소(정관보건지소)",
    "address": "부산광역시 기장군 철마면 철마로 493",
    "lat": 35.275272,
    "lng": 129.15124
  },
  {
    "name": "한수원한빛어린이집",
    "health_center": "기장군보건소(정관보건지소)",
    "address": "부산광역시 기장군 장안읍 천산로 28(한빛아파트 2단지)",
    "lat": 35.332834,
    "lng": 129.284373
  },
  {
    "name": "정관5어린이집",
    "health_center": "기장군보건소(정관보건지소)",
    "address": "부산광역시 기장군 정관읍 정관중앙로 110",
    "lat": 35.328669,
    "lng": 129.184237
  },
  {
    "name": "일광자이푸르지오2어린이집",
    "health_center": "기장군보건소(정관보건지소)",
    "address": "부산광역시 기장군 일광읍 해빛로 29, 자이푸르지오2 단지내",
    "lat": 35.265035,
    "lng": 129.224095
  },
  {
    "name": "정관6어린이집",
    "health_center": "기장군보건소(정관보건지소)",
    "address": "부산광역시 기장군 정관읍 모전로 41(LH 7단지)",
    "lat": 35.338304,
    "lng": 129.168512
  },
  {
    "name": "정관7어린이집",
    "health_center": "기장군보건소(정관보건지소)",
    "address": "부산광역시 기장군 정관읍 정관1로 51",
    "lat": 35.341319,
    "lng": 129.161623
  },
  {
    "name": "이지누리어린이집",
    "health_center": "기장군보건소(정관보건지소)",
    "address": "부산광역시 기장군 정관읍 정관2로 9, 관리동(이지더원2차)",
    "lat": 35.334065,
    "lng": 129.163704
  },
  {
    "name": "정관3어린이집",
    "health_center": "기장군보건소(정관보건지소)",
    "address": "부산광역시 기장군 정관읍 산단4로 160, 관리동 1층 정관3어린이집",
    "lat": 35.321103,
    "lng": 129.1928
  },
  {
    "name": "한솔어린이집",
    "health_center": "기장군보건소(정관보건지소)",
    "address": "부산광역시 기장군 기장읍 대청로 45번길 6",
    "lat": 35.238244,
    "lng": 129.215651
  },
  {
    "name": "내리어린이집",
    "health_center": "기장군보건소(정관보건지소)",
    "address": "부산광역시 기장군 기장읍 소정안길68 내리휴먼시아 110동 1층",
    "lat": 35.206969,
    "lng": 129.205212
  },
  {
    "name": "정관4어린이집",
    "health_center": "기장군보건소(정관보건지소)",
    "address": "부산광역시 기장군 정관읍 산단2로 60",
    "lat": 35.318436,
    "lng": 129.185898
  },
  {
    "name": "삼동어린이집",
    "health_center": "기장군보건소(정관보건지소)",
    "address": "부산광역시 기장군 철마면 철마삼동로80",
    "lat": 35.311649,
    "lng": 129.115259
  },
  {
    "name": "꼬마어린이집",
    "health_center": "기장군보건소(정관보건지소)",
    "address": "부산광역시 기장군 기장읍 차성로344번길 13 한신아파트 108동 104호",
    "lat": 35.248979,
    "lng": 129.215997
  },
  {
    "name": "한솔기장유치원",
    "health_center": "기장군보건소(정관보건지소)",
    "address": "부산광역시 기장군 기장읍 대청로45번길 6",
    "lat": 35.238122,
    "lng": 129.215413
  },
  {
    "name": "죽성초등학교",
    "health_center": "기장군보건소(정관보건지소)",
    "address": "부산광역시 기장군 기장읍 죽성로 270",
    "lat": 35.242744,
    "lng": 129.243822
  },
  {
    "name": "좌천초등학교",
    "health_center": "기장군보건소(정관보건지소)",
    "address": "부산광역시 기장군 장안읍 좌천로 13-66",
    "lat": 35.311955,
    "lng": null
  },
  {
    "name": "기장고등학교",
    "health_center": "기장군보건소(정관보건지소)",
    "address": "부산광역시 기장군 기장읍 차성서로 77",
    "lat": 35.240146,
    "lng": 129.209024
  },
  {
    "name": "21세기영아전담어린이집",
    "health_center": "남구보건소",
    "address": "부산광역시 남구 석포로7 21세기영아전담어린이집(자유4차아파트 단지내)",
    "lat": 35.122616,
    "lng": 129.08114
  },
  {
    "name": "BIFC어린이집",
    "health_center": "남구보건소",
    "address": "부산광역시 남구 문현금융로 40, 문현국제금융센터 101호 BIFC어린이집",
    "lat": 35.147212,
    "lng": 129.065723
  },
  {
    "name": "LG메트로시티어린이집",
    "health_center": "남구보건소",
    "address": "부산광역시 남구 분포로 111, 1차 관리동 LG메트로시티어린이집(용호동, 엘지메트로시티아파트)",
    "lat": 35.12833,
    "lng": 129.112305
  },
  {
    "name": "감만어린이집",
    "health_center": "남구보건소",
    "address": "부산광역시 남구 양지골로 181 감만어린이집",
    "lat": 35.116368,
    "lng": 129.086016
  },
  {
    "name": "경동리인어린이집",
    "health_center": "남구보건소",
    "address": "부산광역시 남구 문현로 336-1 문련경동리인 1단지",
    "lat": 35.142216,
    "lng": 129.073914
  },
  {
    "name": "경성어린이집",
    "health_center": "남구보건소",
    "address": "부산광역시 남구 동제당로 258 남구 종합 사회복지관 내 경성어린이집",
    "lat": 35.127311,
    "lng": 129.075114
  },
  {
    "name": "글로벌창의어린이집",
    "health_center": "남구보건소",
    "address": "부산광역시 남구 오륙도로 85 관리동",
    "lat": 35.102113,
    "lng": 129.116745
  },
  {
    "name": "늘푸른어린이집",
    "health_center": "남구보건소",
    "address": "부산광역시 남구 분포로 111, 101동 103호(용호동,엘지메트로시티)",
    "lat": 35.129639,
    "lng": 129.110921
  },
  {
    "name": "대연어린이집",
    "health_center": "남구보건소",
    "address": "부산광역시 남구 홍곡로 309",
    "lat": 35.121895,
    "lng": 129.089412
  },
  {
    "name": "대연자이어린이집",
    "health_center": "남구보건소",
    "address": "부산광역시 남구 유엔로246 108동 1층(대연자이아파트)",
    "lat": 35.130218,
    "lng": 129.103379
  },
  {
    "name": "동국씨엠어린이집",
    "health_center": "남구보건소",
    "address": "부산광역시 남구 분포로 113, 231동101호",
    "lat": 35.128173,
    "lng": 129.112346
  },
  {
    "name": "동화나라어린이집",
    "health_center": "남구보건소",
    "address": "부산광역시 남구 동명로 164번길 106-6 8통2반(용호동)",
    "lat": 35.114561,
    "lng": 129.113557
  },
  {
    "name": "무지개유치원",
    "health_center": "남구보건소",
    "address": "부산광역시 남구 못골번영로72(대연동)",
    "lat": 35.141842,
    "lng": 129.089397
  },
  {
    "name": "문현베스티움어린이집",
    "health_center": "남구보건소",
    "address": "부산광역시 남구 고동골로 29 문현베스티움아파트 105동 1층",
    "lat": 35.140467,
    "lng": 129.070553
  },
  {
    "name": "산새소리어린이집",
    "health_center": "남구보건소",
    "address": "부산광역시 남구 수영로345 힐스테이트푸르지오 111동 101호",
    "lat": 35.142485,
    "lng": 129.104174
  },
  {
    "name": "색동유치원",
    "health_center": "남구보건소",
    "address": "부산광역시 남구 유엔로 120번가길 121",
    "lat": 35.126766,
    "lng": 129.084353
  },
  {
    "name": "아이뜰어린이집",
    "health_center": "남구보건소",
    "address": "부산광역시 남구 용호로 160번길 29-4",
    "lat": 35.118503,
    "lng": 129.112998
  },
  {
    "name": "아이원어린이집",
    "health_center": "남구보건소",
    "address": "부산광역시 남구 수영로 135, 116동 102호",
    "lat": 35.136687,
    "lng": 129.082052
  },
  {
    "name": "오션파라곤어린이집",
    "health_center": "남구보건소",
    "address": "부산광역시 남구 우암로 300 (공립)오션파라곤어린이집",
    "lat": 35.12475,
    "lng": 129.07448
  },
  {
    "name": "용당어린이집",
    "health_center": "남구보건소",
    "address": "부산광역시 남구 신선로329번길 74",
    "lat": 35.113434,
    "lng": 129.093051
  },
  {
    "name": "용산초등어린이집",
    "health_center": "남구보건소",
    "address": "부산광역시 남구 동명로 176번길 55",
    "lat": 35.116598,
    "lng": 129.116209
  },
  {
    "name": "유니어린이집",
    "health_center": "남구보건소",
    "address": "부산광역시 남구 동명로118번길 84",
    "lat": 35.116405,
    "lng": 129.109467
  },
  {
    "name": "은하유치원",
    "health_center": "남구보건소",
    "address": "부산광역시 남구 수영로 266번길 54",
    "lat": 35.134392,
    "lng": 129.097789
  },
  {
    "name": "한누리어린이집",
    "health_center": "남구보건소",
    "address": "부산광역시 남구 진남로127번길 94",
    "lat": 35.137306,
    "lng": 129.078078
  },
  {
    "name": "한빛어린이집",
    "health_center": "남구보건소",
    "address": "부산광역시 남구 장고개로 85번가길 16",
    "lat": 35.131533,
    "lng": 129.068707
  },
  {
    "name": "한아름어린이집",
    "health_center": "남구보건소",
    "address": "부산광역시 남구 진남로232번길 7",
    "lat": 35.146355,
    "lng": 129.075713
  },
  {
    "name": "해뜨는어린이집",
    "health_center": "남구보건소",
    "address": "부산광역시 남구 용호로 269번길 10",
    "lat": 35.108432,
    "lng": 129.112905
  },
  {
    "name": "해맑은유치원",
    "health_center": "남구보건소",
    "address": "부산광역시 남구 동명로 118번길 63",
    "lat": 35.117297,
    "lng": 129.109583
  },
  {
    "name": "현대어린이집",
    "health_center": "남구보건소",
    "address": "부산광역시 남구 용호로 42번길 14 현대어린이집",
    "lat": 35.126077,
    "lng": 129.108474
  },
  {
    "name": "분포초등학교",
    "health_center": "남구보건소",
    "address": "부산광역시 남구 분포로 41",
    "lat": 35.129043,
    "lng": 129.11415
  },
  {
    "name": "대천중학교",
    "health_center": "남구보건소",
    "address": "부산광역시 남구 신선로 491",
    "lat": 35.128548,
    "lng": 129.103303
  },
  {
    "name": "도담도담어린이집",
    "health_center": "동구보건소",
    "address": "부산광역시 동구 초량상로 151-10",
    "lat": 35.124294,
    "lng": 129.042614
  },
  {
    "name": "동일어린이집",
    "health_center": "동구보건소",
    "address": "부산광역시 동구 영초윗길 28",
    "lat": 35.117553,
    "lng": 129.034643
  },
  {
    "name": "두산하버시티어린이집",
    "health_center": "동구보건소",
    "address": "부산광역시 동구 범일로 21 두산위브더제니스하버시티",
    "lat": 35.1326,
    "lng": 129.057252
  },
  {
    "name": "묘음예능어린이집",
    "health_center": "동구보건소",
    "address": "부산광역시 동구 구봉로 63",
    "lat": 35.125006,
    "lng": 129.035582
  },
  {
    "name": "묘음유치원",
    "health_center": "동구보건소",
    "address": "부산광역시 동구 홍곡남로 53번길 19-6",
    "lat": 35.124848,
    "lng": 129.035371
  },
  {
    "name": "범일어린이집",
    "health_center": "동구보건소",
    "address": "부산광역시 동구 범곡북로 26",
    "lat": 35.141558,
    "lng": 129.053196
  },
  {
    "name": "봉생어린이집",
    "health_center": "동구보건소",
    "address": "부산광역시 동구 고관로 160-4",
    "lat": 35.131396,
    "lng": 129.050631
  },
  {
    "name": "부산진어린이집",
    "health_center": "동구보건소",
    "address": "부산광역시 동구 정공단로 17번길 16",
    "lat": 35.135212,
    "lng": 129.053024
  },
  {
    "name": "수정4동어린이집",
    "health_center": "동구보건소",
    "address": "부산광역시 동구 수정공원남로 38",
    "lat": 35.127446,
    "lng": 129.038949
  },
  {
    "name": "수정삼성어린이집",
    "health_center": "동구보건소",
    "address": "부산광역시 동구 수정중로 33",
    "lat": 35.131346,
    "lng": 129.045033
  },
  {
    "name": "수정어린이집",
    "health_center": "동구보건소",
    "address": "부산광역시 동구 수정공원로129번길 10",
    "lat": 35.136191,
    "lng": 129.042979
  },
  {
    "name": "수정휴포레어린이집",
    "health_center": "동구보건소",
    "address": "부산광역시 동구 중앙대로 357",
    "lat": 35.127304,
    "lng": 129.046475
  },
  {
    "name": "예랑어린이집",
    "health_center": "동구보건소",
    "address": "부산광역시 동구 안창로 57",
    "lat": 35.145543,
    "lng": 129.042536
  },
  {
    "name": "오션브릿지어린이집",
    "health_center": "동구보건소",
    "address": "부산광역시 동구 범일로 41",
    "lat": 35.133601,
    "lng": 129.058889
  },
  {
    "name": "위브초롱어린이집",
    "health_center": "동구보건소",
    "address": "부산광역시 동구 성삼일로5 범일뉴타운 103동 101호",
    "lat": 35.13192,
    "lng": 129.05533
  },
  {
    "name": "일동미라주어린이집",
    "health_center": "동구보건소",
    "address": "부산광역시 동구 자성로 2 부산항 일동미라주더오션 공동주택 관리동",
    "lat": 35.131749,
    "lng": 129.052501
  },
  {
    "name": "좌천4동어린이집",
    "health_center": "동구보건소",
    "address": "부산광역시 동구 성북로27번길 11",
    "lat": 35.136426,
    "lng": 129.049221
  },
  {
    "name": "초량1동어린이집",
    "health_center": "동구보건소",
    "address": "부산광역시 동구 영초윗길9",
    "lat": 35.116028,
    "lng": 129.034527
  },
  {
    "name": "초량범양레우스어린이집",
    "health_center": "동구보건소",
    "address": "부산광역시 동구 초량중로 114",
    "lat": 35.121858,
    "lng": 129.04147
  },
  {
    "name": "초량베스티움어린이집",
    "health_center": "동구보건소",
    "address": "부산광역시 동구 홍곡로 37",
    "lat": 35.123565,
    "lng": 129.039508
  },
  {
    "name": "초량이편한어린이집",
    "health_center": "동구보건소",
    "address": "부산광역시 동구 홍곡로 50",
    "lat": 35.123919,
    "lng": 129.04066
  },
  {
    "name": "한림유치원",
    "health_center": "동구보건소",
    "address": "부산광역시 동구 홍곡남로 3",
    "lat": 35.12417,
    "lng": 129.039674
  },
  {
    "name": "행복누리어린이집",
    "health_center": "동구보건소",
    "address": "부산광역시 동구 자성로 134",
    "lat": 35.13661,
    "lng": 129.065005
  },
  {
    "name": "현대해상온마음어린이집",
    "health_center": "동구보건소",
    "address": "부산광역시 동구 고관로13번길 31",
    "lat": 35.121222,
    "lng": 129.040329
  },
  {
    "name": "효원어린이집",
    "health_center": "동구보건소",
    "address": "부산광역시 동구 고관로13번길 47",
    "lat": 35.121497,
    "lng": 129.039483
  },
  {
    "name": "범일초등학교",
    "health_center": "동구보건소",
    "address": "부산광역시 동구 증산서로 55",
    "lat": 35.139479,
    "lng": 129.049758
  },
  {
    "name": "강변뜨란채어린이집",
    "health_center": "동래구보건소",
    "address": "부산광역시 동래구 안남로 79 관리동 1층",
    "lat": 35.194994,
    "lng": 129.100862
  },
  {
    "name": "낙민아라빌어린이집",
    "health_center": "동래구보건소",
    "address": "부산광역시 동래구 안남로 31번길 21",
    "lat": 35.195365,
    "lng": 129.095336
  },
  {
    "name": "동래꿈에그린어린이집",
    "health_center": "동래구보건소",
    "address": "부산광역시 동래구 온천천로339번길 51",
    "lat": 35.196166,
    "lng": 129.090247
  },
  {
    "name": "동래래미안아이파크2단지어린이집",
    "health_center": "동래구보건소",
    "address": "부산광역시 동래구 금정마을로 150",
    "lat": 35.211437,
    "lng": 129.06894
  },
  {
    "name": "동래래미안아이파크3단지어린이집",
    "health_center": "동래구보건소",
    "address": "부산광역시 동래구 충렬대로 107번길 65",
    "lat": 35.21082,
    "lng": 129.071947
  },
  {
    "name": "동래효성해링턴어린이집",
    "health_center": "동래구보건소",
    "address": "부산광역시 동래구 아시아드대로 255번길 14 동래효성해링턴플레이스",
    "lat": 35.207842,
    "lng": 129.068209
  },
  {
    "name": "명랑어린이집",
    "health_center": "동래구보건소",
    "address": "부산광역시 동래구 사직북로48번길 137",
    "lat": 35.204624,
    "lng": 129.063364
  },
  {
    "name": "명장이편한세상어린이집",
    "health_center": "동래구보건소",
    "address": "부산광역시 동래구 명장로 65",
    "lat": 35.206633,
    "lng": 129.106903
  },
  {
    "name": "사직명랑어린이집",
    "health_center": "동래구보건소",
    "address": "부산광역시 동래구 석사북로 20",
    "lat": 35.20029,
    "lng": 129.061611
  },
  {
    "name": "성지어린이집",
    "health_center": "동래구보건소",
    "address": "부산광역시 동래구 석사북로 57",
    "lat": 35.203182,
    "lng": 129.063853
  },
  {
    "name": "수안어린이집",
    "health_center": "동래구보건소",
    "address": "부산광역시 동래구 명륜로75번길 31 새동래아파트 다동 102호",
    "lat": 35.200232,
    "lng": 129.08235
  },
  {
    "name": "스위첸어린이집",
    "health_center": "동래구보건소",
    "address": "부산광역시 동래구 사직북로 64 관리동 1층",
    "lat": 35.199834,
    "lng": 129.056507
  },
  {
    "name": "아름다운어린이집",
    "health_center": "동래구보건소",
    "address": "부산광역시 동래구 명서로182 명장경동아파트 103동 103호",
    "lat": 35.207598,
    "lng": 129.101802
  },
  {
    "name": "안락현대어린이집",
    "health_center": "동래구보건소",
    "address": "부산광역시 동래구 삼어로9 관리동 1층",
    "lat": 35.200428,
    "lng": 129.113872
  },
  {
    "name": "예원어린이집",
    "health_center": "동래구보건소",
    "address": "부산광역시 동래구 사직로 80",
    "lat": 35.196544,
    "lng": 129.055367
  },
  {
    "name": "우성어린이집",
    "health_center": "동래구보건소",
    "address": "부산광역시 동래구 안남로 9 102-101 (수민동, 동래우성아파트)",
    "lat": 35.194863,
    "lng": 129.093362
  },
  {
    "name": "이편한세상동래온천어린이집",
    "health_center": "동래구보건소",
    "address": "부산광역시 동래구 아시아드대로 202",
    "lat": 35.201911,
    "lng": 129.066461
  },
  {
    "name": "정다운어린이집",
    "health_center": "동래구보건소",
    "address": "부산광역시 동래구 석사북로 42",
    "lat": 35.201956,
    "lng": 129.063324
  },
  {
    "name": "주영어린이집",
    "health_center": "동래구보건소",
    "address": "부산광역시 동래구 시실로 211번길 51",
    "lat": 35.208499,
    "lng": 129.099856
  },
  {
    "name": "한누리유치원",
    "health_center": "동래구보건소",
    "address": "부산광역시 동래구 쇠미로71번길 47-2",
    "lat": 35.20027,
    "lng": 129.052836
  },
  {
    "name": "한독온천어린이집",
    "health_center": "동래구보건소",
    "address": "부산광역시 동래구 석사북로 95번길 72",
    "lat": 35.207523,
    "lng": 129.063253
  },
  {
    "name": "한빛어린이집",
    "health_center": "동래구보건소",
    "address": "부산광역시 동래구 명안로 45번길 19",
    "lat": 35.200748,
    "lng": 129.103431
  },
  {
    "name": "혜화어린이집",
    "health_center": "동래구보건소",
    "address": "부산광역시 동래구 명장로99번길 25 -1 (명장1동)",
    "lat": 35.201755,
    "lng": 129.113453
  },
  {
    "name": "힐스테이트명륜트라디움어린이집",
    "health_center": "동래구보건소",
    "address": "부산광역시 동래구 동래로 57번길 94",
    "lat": 35.213571,
    "lng": 129.081402
  },
  {
    "name": "안남초등학교",
    "health_center": "동래구보건소",
    "address": "부산광역시 동래구 연안로 46",
    "lat": 35.191731,
    "lng": 129.107727
  },
  {
    "name": "여고초등학교",
    "health_center": "동래구보건소",
    "address": "부산광역시 동래구 여고로63번가길 12",
    "lat": 35.197911,
    "lng": 129.068959
  },
  {
    "name": "가야2동로사어린이집",
    "health_center": "부산진구보건소",
    "address": "부산광역시 부산진구 엄광로 68 117동 104호",
    "lat": 35.14656,
    "lng": 129.025356
  },
  {
    "name": "가야송림어린이집",
    "health_center": "부산진구보건소",
    "address": "부산광역시 부산진구 대학로 36번길 12",
    "lat": 35.152584,
    "lng": 129.035286
  },
  {
    "name": "개금2동예슬어린이집",
    "health_center": "부산진구보건소",
    "address": "부산광역시 부산진구 진사로 48번길 37",
    "lat": 35.146043,
    "lng": 129.014998
  },
  {
    "name": "개금3동한다솜어린이집",
    "health_center": "부산진구보건소",
    "address": "부산광역시 부산진구 백양대로 300번길 19",
    "lat": 35.155569,
    "lng": 129.017572
  },
  {
    "name": "개금천사어린이집",
    "health_center": "부산진구보건소",
    "address": "부산광역시 부산진구 냉정로 161번길 6",
    "lat": 35.150007,
    "lng": 129.017896
  },
  {
    "name": "곤지곤지어린이집",
    "health_center": "부산진구보건소",
    "address": "부산광역시 부산진구 동평로 352 109동 102호",
    "lat": 35.173365,
    "lng": 129.063191
  },
  {
    "name": "금강펜테리움어린이집",
    "health_center": "부산진구보건소",
    "address": "부산광역시 부산진구 가야대로 450 3층",
    "lat": 35.152518,
    "lng": 129.020986
  },
  {
    "name": "꼬마동산어린이집",
    "health_center": "부산진구보건소",
    "address": "부산광역시 부산진구 가야공원로 41 110동 105호",
    "lat": 35.150179,
    "lng": 129.031364
  },
  {
    "name": "꿈샘어린이집",
    "health_center": "부산진구보건소",
    "address": "부산광역시 부산진구 백양대로 160",
    "lat": 35.15956,
    "lng": 129.032676
  },
  {
    "name": "다사랑어린이집",
    "health_center": "부산진구보건소",
    "address": "부산광역시 부산진구 백양순환로28번길13-8",
    "lat": 35.167618,
    "lng": 129.03367
  },
  {
    "name": "도담도담어린이집",
    "health_center": "부산진구보건소",
    "address": "부산광역시 부산진구 당감로 79 6동 101호",
    "lat": 35.168996,
    "lng": 129.037557
  },
  {
    "name": "래미안어반파크어린이집",
    "health_center": "부산진구보건소",
    "address": "부산광역시 부산진구 성지로 37 래미안어반파크어린이집",
    "lat": 35.174134,
    "lng": 129.054415
  },
  {
    "name": "롯데캐슬골드아너어린이집",
    "health_center": "부산진구보건소",
    "address": "부산광역시 부산진구 가야대로 538 롯데캐슬골드아너어린이집",
    "lat": 35.152687,
    "lng": 129.03056
  },
  {
    "name": "범천2동꿈터어린이집",
    "health_center": "부산진구보건소",
    "address": "부산광역시 부산진구 엄광로 514번길 13",
    "lat": 35.145091,
    "lng": 129.048773
  },
  {
    "name": "봄여름가을겨울어린이집",
    "health_center": "부산진구보건소",
    "address": "부산광역시 부산진구 신천대로 197번길 15 102동 203호",
    "lat": 35.158856,
    "lng": 129.049366
  },
  {
    "name": "부산광역시청어린이집",
    "health_center": "부산진구보건소",
    "address": "부산광역시 부산진구 거제천로40번길 31",
    "lat": 35.179214,
    "lng": 129.072797
  },
  {
    "name": "부산진구청어린이집",
    "health_center": "부산진구보건소",
    "address": "부산광역시 부산진구 시민공원로 30 부산진구청어린이집",
    "lat": 35.162662,
    "lng": 129.05323
  },
  {
    "name": "삼한골든뷰어린이집",
    "health_center": "부산진구보건소",
    "address": "부산광역시 부산진구 중앙대로 821 삼한골든뷰 센트럴파크",
    "lat": 35.16502,
    "lng": 129.062787
  },
  {
    "name": "새뜰영재어린이집",
    "health_center": "부산진구보건소",
    "address": "부산광역시 부산진구 백양대로 208번길 38-25 102동 103호",
    "lat": 35.161508,
    "lng": 129.025663
  },
  {
    "name": "서면롯데캐슬엘루체어린이집",
    "health_center": "부산진구보건소",
    "address": "부산광역시 부산진구 신천대로 126번길 42 서면롯데캐슬엘루체어린이집",
    "lat": 35.154862,
    "lng": 129.052585
  },
  {
    "name": "서면비스타동원어린이집",
    "health_center": "부산진구보건소",
    "address": "부산광역시 부산진구 마철로 114",
    "lat": 35.157327,
    "lng": 129.036966
  },
  {
    "name": "서면아이파크어린이집",
    "health_center": "부산진구보건소",
    "address": "부산시광역시 부산진구 동성로 50 서면아이파크어린이집",
    "lat": 35.155891,
    "lng": 129.06982
  },
  {
    "name": "양정원광유치원",
    "health_center": "부산진구보건소",
    "address": "부산광역시 부산진구 양지로 17번길 28",
    "lat": 35.169746,
    "lng": 129.071029
  },
  {
    "name": "양정중앙어린이집",
    "health_center": "부산진구보건소",
    "address": "부산광역시 부산진구 양지로5번길 25",
    "lat": 35.17076,
    "lng": 129.070199
  },
  {
    "name": "양정포레힐즈스위첸어린이집",
    "health_center": "부산진구보건소",
    "address": "부산광역시 부산진구 양연로 36 양정포레힐즈스위첸아파트",
    "lat": 35.172451,
    "lng": 129.079647
  },
  {
    "name": "엘리시안어린이집",
    "health_center": "부산진구보건소",
    "address": "부산광역시 부산진구 만리산로 11 103동 1층",
    "lat": 35.143846,
    "lng": 129.05387
  },
  {
    "name": "연지꿈동산어린이집",
    "health_center": "부산진구보건소",
    "address": "부산광역시 부산진구 성지로51번길 24 (연지동)",
    "lat": 35.175771,
    "lng": 129.053859
  },
  {
    "name": "예솔어린이집",
    "health_center": "부산진구보건소",
    "address": "부산광역시 부산진구 엄광로 273",
    "lat": 35.15465,
    "lng": 129.039649
  },
  {
    "name": "이진젠시티어린이집",
    "health_center": "부산진구보건소",
    "address": "부산광역시 부산진구 가야대로 497 이진젠시티어린이집",
    "lat": 35.152505,
    "lng": 129.026153
  },
  {
    "name": "이편한세상시민공원어린이집",
    "health_center": "부산진구보건소",
    "address": "부산광역시 부산진구 진남로 455",
    "lat": 35.166319,
    "lng": 129.068852
  },
  {
    "name": "일신어린이집",
    "health_center": "부산진구보건소",
    "address": "부산광역시 부산진구 전포대로 246번길 36",
    "lat": 35.158528,
    "lng": 129.067631
  },
  {
    "name": "전포1동연수어린이집",
    "health_center": "부산진구보건소",
    "address": "부산광역시 부산진구 전포대로200번길 40 (전포동)",
    "lat": 35.154331,
    "lng": 129.067708
  },
  {
    "name": "전포꿈나라어린이집",
    "health_center": "부산진구보건소",
    "address": "부산광역시 부산진구 중앙대로 862 102동 1층",
    "lat": 35.166783,
    "lng": 129.067789
  },
  {
    "name": "전포하나어린이집",
    "health_center": "부산진구보건소",
    "address": "부산광역시 부산진구 서전로 58번길 145",
    "lat": 35.154793,
    "lng": 129.066365
  },
  {
    "name": "참좋은어린이집",
    "health_center": "부산진구보건소",
    "address": "부산광역시 부산진구 동평로 352 108동 101호",
    "lat": 35.173344,
    "lng": 129.063174
  },
  {
    "name": "경남공업고등학교",
    "health_center": "부산진구보건소",
    "address": "부산광역시 부산진구 전포대로 175번길 22",
    "lat": 35.15305,
    "lng": 129.063558
  },
  {
    "name": "부산정보고등학교",
    "health_center": "부산진구보건소",
    "address": "부산광역시 부산진구 화지로 24",
    "lat": 35.176787,
    "lng": 129.065228
  },
  {
    "name": "부산진여자상업고등학교",
    "health_center": "부산진구보건소",
    "address": "부산광역시 부산진구 진남로 524(양정동)",
    "lat": 35.170102,
    "lng": 129.072184
  },
  {
    "name": "동원초등학교",
    "health_center": "부산진구보건소",
    "address": "부산광역시 부산진구 백양산로 43",
    "lat": 35.172956,
    "lng": 129.031016
  },
  {
    "name": "서면중학교",
    "health_center": "부산진구보건소",
    "address": "부산광역시 부산진구 가야대로747번길 53",
    "lat": 35.160488,
    "lng": 129.052224
  },
  {
    "name": "e편한세상금정산어린이집",
    "health_center": "북구보건소",
    "address": "부산광역시 북구 상학로 36 관리동",
    "lat": 35.216947,
    "lng": 129.047353
  },
  {
    "name": "가온누리어린이집",
    "health_center": "북구보건소",
    "address": "부산광역시 북구 만덕1로104번가길 37",
    "lat": 35.215885,
    "lng": 129.026343
  },
  {
    "name": "공감어린이집",
    "health_center": "북구보건소",
    "address": "부산광역시 북구 백양대로 1064번길 49",
    "lat": 35.209074,
    "lng": 128.9998
  },
  {
    "name": "금창초등어린이집",
    "health_center": "북구보건소",
    "address": "부산광역시 북구 효열로 235번길 14",
    "lat": 35.265545,
    "lng": 129.020167
  },
  {
    "name": "노리숲어린이집",
    "health_center": "북구보건소",
    "address": "부산광역시 북구 만덕3로 16번길 11 4동 101호",
    "lat": 35.214522,
    "lng": 129.029865
  },
  {
    "name": "누리봄어린이집",
    "health_center": "북구보건소",
    "address": "부산광역시 북구 금곡대로 175 201동 관리동",
    "lat": 35.22459,
    "lng": 129.008989
  },
  {
    "name": "늘푸른봄뜰어린이집",
    "health_center": "북구보건소",
    "address": "부산광역시 북구 함박봉로 140번길21 만덕3주공아파트 관리동 1층",
    "lat": 35.203714,
    "lng": 129.03368
  },
  {
    "name": "다윗어린이집",
    "health_center": "북구보건소",
    "address": "부산광역시 북구 금곡대로 166 505동 101호,(화명동,화명롯데캐슬카이저)",
    "lat": 35.224824,
    "lng": 129.010532
  },
  {
    "name": "덕천포레나2차어린이집",
    "health_center": "북구보건소",
    "address": "부산광역시 북구 만덕대로 101 관리동 어린이집(덕천동, 포레나 부산덕천2차)",
    "lat": 35.213525,
    "lng": 129.015422
  },
  {
    "name": "도담어린이집",
    "health_center": "북구보건소",
    "address": "부산광역시 북구 학사로17번길 31 103동 101호(화명동, 수정강변타운)",
    "lat": 35.223374,
    "lng": 129.007224
  },
  {
    "name": "동문다안어린이집",
    "health_center": "북구보건소",
    "address": "부산광역시 북구 덕천로 276번길 60",
    "lat": 35.207275,
    "lng": 129.032355
  },
  {
    "name": "동문다임어린이집",
    "health_center": "북구보건소",
    "address": "부산광역시 북구 덕천로276번길 85 동문굿모닝힐 2차 아파트 관리동",
    "lat": 35.205766,
    "lng": 129.034402
  },
  {
    "name": "동문예쁜어린이집",
    "health_center": "북구보건소",
    "address": "부산광역시 북구 덕천로276번길 60 107동 103호(만덕동, 동문굿모닝힐)",
    "lat": 35.206601,
    "lng": 129.032922
  },
  {
    "name": "동원비스타어린이집",
    "health_center": "북구보건소",
    "address": "부산광역시 북구 낙동대로 1738번길 10 동원비스타 어린이집",
    "lat": 35.208493,
    "lng": 129.00258
  },
  {
    "name": "드림아이어린이집",
    "health_center": "북구보건소",
    "address": "부산광역시 북구 금곡대로 166 103동 103호(화명동, 롯데캐슬카이저)",
    "lat": 35.222725,
    "lng": 129.010874
  },
  {
    "name": "또하나어린이집",
    "health_center": "북구보건소",
    "address": "부산광역시 북구 덕천로234번길 5 102동 109호(만덕동, 동원)",
    "lat": 35.210215,
    "lng": 129.031581
  },
  {
    "name": "리틀카이저어린이집",
    "health_center": "북구보건소",
    "address": "부산광역시 북구 금곡대로 166  506동 104호(화명동,화명롯데캐슬카이저)",
    "lat": 35.222725,
    "lng": 129.010874
  },
  {
    "name": "미래어린이집",
    "health_center": "북구보건소",
    "address": "부산광역시 북구 산성로65번길 6-4",
    "lat": 35.242011,
    "lng": 129.019837
  },
  {
    "name": "반도유보라어린이집",
    "health_center": "북구보건소",
    "address": "부산광역시 북구 백양대로 1136 구포동,리버파크반도유보라아파트",
    "lat": 35.204675,
    "lng": 129.003191
  },
  {
    "name": "백양유치원",
    "health_center": "북구보건소",
    "address": "부산광역시 북구 만덕2로 10 부산 만덕삼성종합상가",
    "lat": 35.212035,
    "lng": 129.036855
  },
  {
    "name": "백조명문어린이집",
    "health_center": "북구보건소",
    "address": "부산광역시 북구 효열로 39 (금곡동)",
    "lat": 35.249535,
    "lng": 129.014399
  },
  {
    "name": "백조명문유치원",
    "health_center": "북구보건소",
    "address": "부산광역시 북구 효열로39",
    "lat": 35.249618,
    "lng": 129.014585
  },
  {
    "name": "브레인어린이집",
    "health_center": "북구보건소",
    "address": "부산광역시 북구 화명신도시로 100 209동 104호(화명동, 코오롱하늘채2차아파트)",
    "lat": 35.232901,
    "lng": 129.011518
  },
  {
    "name": "사과나무어린이집",
    "health_center": "북구보건소",
    "address": "부산광역시 북구 화명신도시로39, 715동 103호",
    "lat": 35.226957,
    "lng": 129.007938
  },
  {
    "name": "삼정어린이집",
    "health_center": "북구보건소",
    "address": "부산광역시 북구 백양대로1016번길 10 삼정그린코아 관리동1층",
    "lat": 35.195634,
    "lng": 128.99526
  },
  {
    "name": "숲속나라어린이집",
    "health_center": "북구보건소",
    "address": "부산광역시 북구 구만덕로59번길 42 (만덕동)",
    "lat": 35.21698,
    "lng": 129.042817
  },
  {
    "name": "신대성어린이집",
    "health_center": "북구보건소",
    "address": "부산광역시 북구 구남언덕로 14 (구포동)",
    "lat": 35.20199,
    "lng": 128.994556
  },
  {
    "name": "아람어린이집",
    "health_center": "북구보건소",
    "address": "부산광역시 북구 함박봉로 22",
    "lat": 35.209701,
    "lng": 129.020987
  },
  {
    "name": "아이동산어린이집",
    "health_center": "북구보건소",
    "address": "부산광역시 북구 만덕대로155번길 15 101동 102호(덕천동, 덕천삼정그린코아)",
    "lat": 35.213926,
    "lng": 129.021472
  },
  {
    "name": "앙팡어린이집",
    "health_center": "북구보건소",
    "address": "부산광역시 북구 만덕3로 49 101동 103호(만덕동, 쌍용스윗닷홈)",
    "lat": 35.212154,
    "lng": 129.030418
  },
  {
    "name": "예담어린이집",
    "health_center": "북구보건소",
    "address": "부산광역시 북구 팽나무로 48-1",
    "lat": 35.205517,
    "lng": 129.009487
  },
  {
    "name": "우리동네어린이집",
    "health_center": "북구보건소",
    "address": "부산광역시 북구 덕천로234번길 34 205동 104호(만덕동, 럭키2단지아파트)",
    "lat": 35.21017,
    "lng": 129.027382
  },
  {
    "name": "은하수황토어린이집",
    "health_center": "북구보건소",
    "address": "부산광역시 북구 만덕대로290번길 38-7 (만덕동)",
    "lat": 35.212809,
    "lng": 129.0339977
  },
  {
    "name": "인천어린이집",
    "health_center": "북구보건소",
    "address": "부산광역시 북구 효열로 76 주공4단지 화정복지관 내 1층(금곡동)",
    "lat": 35.25254,
    "lng": 129.015012
  },
  {
    "name": "큰나래어린이집",
    "health_center": "북구보건소",
    "address": "부산광역시 북구 함박봉로140번길 16 (만덕동,상록한신휴플러스아파트) 관리동",
    "lat": 35.203933,
    "lng": 129.032611
  },
  {
    "name": "푸른숲미래어린이집",
    "health_center": "북구보건소",
    "address": "부산광역시 북구 금곡대로 264-1 408동 104호(화명동, 대림타운)",
    "lat": 35.229898,
    "lng": 129.015033
  },
  {
    "name": "푸른초원어린이집",
    "health_center": "북구보건소",
    "address": "부산광역시 북구 화명신도시로 156 롯데낙천대아파트 관리동 (화명동)",
    "lat": 35.23746,
    "lng": 129.011865
  },
  {
    "name": "햇빛유치원",
    "health_center": "북구보건소",
    "address": "부산광역시 북구 효열로 117",
    "lat": 35.25672,
    "lng": 129.013635
  },
  {
    "name": "현대여울림유치원",
    "health_center": "북구보건소",
    "address": "부산광역시 북구 백양대로 1003(현대아파트 단지 내)",
    "lat": 35.196849,
    "lng": 128.993148
  },
  {
    "name": "화명어린이집",
    "health_center": "북구보건소",
    "address": "부산광역시 북구 금곡대로 166, 롯데캐슬카이저 내",
    "lat": 35.222699,
    "lng": 129.011153
  },
  {
    "name": "화명유림어린이집",
    "health_center": "북구보건소",
    "address": "부산광역시 북구 화명대로 110",
    "lat": 35.234886,
    "lng": 129.020645
  },
  {
    "name": "화명푸르지오헤리센트어린이집",
    "health_center": "북구보건소",
    "address": "부산광역시 북구 산성로 28 (화명동, 화명푸르지오헤리센트)",
    "lat": 35.239308,
    "lng": 129.017292
  },
  {
    "name": "화명힐스어린이집",
    "health_center": "북구보건소",
    "address": "부산광역시 북구 화명대로68",
    "lat": 35.233498,
    "lng": 129.016053
  },
  {
    "name": "효림어린이집",
    "health_center": "북구보건소",
    "address": "부산광역시 북구 백양대로 1016번길 100-47",
    "lat": 35.198313,
    "lng": 128.999854
  },
  {
    "name": "효림유치원",
    "health_center": "북구보건소",
    "address": "부산광역시 북구 백양대로1016번길 100-47",
    "lat": 35.198313,
    "lng": 128.999854
  },
  {
    "name": "휴먼시아어린이집",
    "health_center": "북구보건소",
    "address": "부산광역시 북구 만덕1로51번길 11 202동 1층(만덕동, 만덕3휴먼시아아파트)",
    "lat": 35.21384,
    "lng": 129.031998
  },
  {
    "name": "구포초등학교",
    "health_center": "북구보건소",
    "address": "부산광역시 북구 백양대로 1124번길 20",
    "lat": 35.203243,
    "lng": 129.000997
  },
  {
    "name": "덕천초등학교",
    "health_center": "북구보건소",
    "address": "부산광역시 북구 덕천2길 10",
    "lat": 35.208294,
    "lng": 129.006329
  },
  {
    "name": "화잠초등학교",
    "health_center": "북구보건소",
    "address": "부산광역시 북구 화명대로 97-25",
    "lat": 35.23574,
    "lng": 129.017449
  },
  {
    "name": "화정초등학교",
    "health_center": "북구보건소",
    "address": "부산광역시 북구 의성로 23",
    "lat": 35.21801,
    "lng": 129.00991
  },
  {
    "name": "가베친구어린이집",
    "health_center": "사상구보건소",
    "address": "부산광역시 사상구 백양대로342번길16, 주례엘지아파트 107동 104호",
    "lat": 35.15459,
    "lng": 129.014906
  },
  {
    "name": "감전꽃동산어린이집",
    "health_center": "사상구보건소",
    "address": "부산광역시 사상구 새벽시장로 56번길 30(감전동)",
    "lat": 35.15404,
    "lng": 128.979313
  },
  {
    "name": "근로복지공단어린이집",
    "health_center": "사상구보건소",
    "address": "부산광역시 사상구 사상로 255(괘법동 516-42)",
    "lat": 35.167402,
    "lng": 128.981622
  },
  {
    "name": "금강어린이집",
    "health_center": "사상구보건소",
    "address": "부산광역시 사상구 대동로64번길 25 금강아파트 103동 110호",
    "lat": 35.136315,
    "lng": 128.978461
  },
  {
    "name": "꼬마나라어린이집",
    "health_center": "사상구보건소",
    "address": "부산광역시 사상구 백양대로 372-15 주례한일유엔아이아파트 109동 103호",
    "lat": 35.154208,
    "lng": 129.010184
  },
  {
    "name": "동성럭키어린이집",
    "health_center": "사상구보건소",
    "address": "부산광역시 사상구 주례로 116",
    "lat": 35.146488,
    "lng": 129.004039
  },
  {
    "name": "럭키어린이집",
    "health_center": "사상구보건소",
    "address": "부산광역시 사상구 가야대로284번길 12 8-101",
    "lat": 35.14753,
    "lng": 129.003481
  },
  {
    "name": "롯데캐슬어린이집",
    "health_center": "사상구보건소",
    "address": "부산광역시 사상구 엄궁북로40 507동 1층",
    "lat": 35.12678,
    "lng": 128.975527
  },
  {
    "name": "무덕어린이집",
    "health_center": "사상구보건소",
    "address": "부산광역시 사상구 냉정로 78",
    "lat": 35.148779,
    "lng": 129.008458
  },
  {
    "name": "민들레어린이집",
    "health_center": "사상구보건소",
    "address": "부산광역시 사상구 모라로 192번길 20-33",
    "lat": 35.183065,
    "lng": 129.00011
  },
  {
    "name": "부산광역시한솔어린이집",
    "health_center": "사상구보건소",
    "address": "부산광역시 사상구 모덕로82",
    "lat": 35.181105,
    "lng": 128.984843
  },
  {
    "name": "삼성어린이집",
    "health_center": "사상구보건소",
    "address": "부산광역시 사상구 학감대로123번길 75 관리동(학장동, 학장삼성2차아파트)",
    "lat": 35.140495,
    "lng": 128.9837
  },
  {
    "name": "아이숲어린이집",
    "health_center": "사상구보건소",
    "address": "부산광역시 사상구 덕상로 27",
    "lat": 35.173925,
    "lng": 128.989581
  },
  {
    "name": "엄마사랑어린이집",
    "health_center": "사상구보건소",
    "address": "부산광역시 사상구 학감대로49번길 62 105동 102호",
    "lat": 35.13468,
    "lng": 128.992071
  },
  {
    "name": "주례2어린이집",
    "health_center": "사상구보건소",
    "address": "부산광역시 사상구 주례로34번길 59 (주례동)",
    "lat": 35.147513,
    "lng": 129.008192
  },
  {
    "name": "주례경동리인어린이집",
    "health_center": "사상구보건소",
    "address": "부산광역시 백양대로526 경동리인아파트 내 주례경동리인어린이집",
    "lat": 35.155856,
    "lng": 128.996741
  },
  {
    "name": "주례고운어린이집",
    "health_center": "사상구보건소",
    "address": "부산광역시 사상구 동주로 2-11",
    "lat": 35.147704,
    "lng": 128.999071
  },
  {
    "name": "학장삼정그린코아어린이집",
    "health_center": "사상구보건소",
    "address": "부산광역시 사상구 학감대로 123번길 67 관리동 학장삼정그린코아어린이집",
    "lat": 35.140415,
    "lng": 128.985344
  },
  {
    "name": "학장어린이집",
    "health_center": "사상구보건소",
    "address": "부산광역시 사상구 학감대로 49번길 28-70 학장사회복지관 내 학장어린이집",
    "lat": 35.138469,
    "lng": 128.989476
  },
  {
    "name": "한사랑어린이집",
    "health_center": "사상구보건소",
    "address": "부산광역시 사상구 백양대로880, 111동 104호 (모라동, 우신아파트)",
    "lat": 35.183927,
    "lng": 128.991765
  },
  {
    "name": "한신자연누리어린이집",
    "health_center": "사상구보건소",
    "address": "부산광역시 사상구 엄궁로 40 (엄궁동, 한신2차아파트관리동)",
    "lat": 35.124522,
    "lng": 128.969189
  },
  {
    "name": "감전초등학교",
    "health_center": "사상구보건소",
    "address": "부산광역시 사상구 괘감로 132",
    "lat": 35.155555,
    "lng": 128.988221
  },
  {
    "name": "동주초등학교",
    "health_center": "사상구보건소",
    "address": "부산광역시 사상구 가야대로 306번길 72",
    "lat": 35.146676,
    "lng": 129.005359
  },
  {
    "name": "서감초등학교",
    "health_center": "사상구보건소",
    "address": "부산광역시 사상구 괘감로 64 (감전동)",
    "lat": 35.157278,
    "lng": 128.981943
  },
  {
    "name": "엄궁초등학교",
    "health_center": "사상구보건소",
    "address": "부산광역시 사상구 엄궁로191번길 23",
    "lat": 35.128808,
    "lng": 128.974145
  },
  {
    "name": "주양초등학교",
    "health_center": "사상구보건소",
    "address": "부산광역시 사상구 백양대로 372-6",
    "lat": 35.153636,
    "lng": 129.01224
  },
  {
    "name": "감천꿈나무어린이집",
    "health_center": "사하구보건소",
    "address": "부산광역시 사하구 감천로117번길50",
    "lat": 35.089616,
    "lng": 129.00534
  },
  {
    "name": "감천어린이집",
    "health_center": "사하구보건소",
    "address": "부산광역시 사하구 옥천로 93번길 14-2",
    "lat": 35.095006,
    "lng": 129.009175
  },
  {
    "name": "꿈누리유치원",
    "health_center": "사하구보건소",
    "address": "부산광역시 사하구 두송로26번길 62",
    "lat": 35.076591,
    "lng": 128.980138
  },
  {
    "name": "내원어린이집",
    "health_center": "사하구보건소",
    "address": "부산광역시 사하구 다대낙조2길 17",
    "lat": 35.051184,
    "lng": 128.963563
  },
  {
    "name": "다대어린이집",
    "health_center": "사하구보건소",
    "address": "부산광역시 사하구 다대로 440 다대사회복지관 내 (다대동)",
    "lat": 35.063767,
    "lng": 128.979269
  },
  {
    "name": "단비어린이집",
    "health_center": "사하구보건소",
    "address": "부산광역시 사하구 비봉로58(신평동)",
    "lat": 35.09904,
    "lng": 128.965821
  },
  {
    "name": "동백어린이집",
    "health_center": "사하구보건소",
    "address": "부산광역시 사하구 다대낙조2길 5",
    "lat": 35.050283,
    "lng": 128.965323
  },
  {
    "name": "드림어린이집",
    "health_center": "사하구보건소",
    "address": "부산광역시 사하구 하신번영로328번길8",
    "lat": 35.110094,
    "lng": 128.959667
  },
  {
    "name": "롯데캐슬2단지어린이집",
    "health_center": "사하구보건소",
    "address": "부산광역시 사하구 다대낙조2길 100 부산광역시 사하구 다대 낙조2길 100번지",
    "lat": 35.055382,
    "lng": 128.96483
  },
  {
    "name": "롯데캐슬4단지어린이집",
    "health_center": "사하구보건소",
    "address": "부산광역시 사하구 다대낙조2길 100",
    "lat": 35.056739,
    "lng": 128.965518
  },
  {
    "name": "봉우리어린이집",
    "health_center": "사하구보건소",
    "address": "부산광역시 사하구 신산북로43번길 55(신평동)",
    "lat": 35.092924,
    "lng": 128.970761
  },
  {
    "name": "봉우리유치원",
    "health_center": "사하구보건소",
    "address": "부산광역시 사하구 신산북로43번길 55(신평동)",
    "lat": 35.092924,
    "lng": 128.970761
  },
  {
    "name": "사하중흥S클래스어린이집",
    "health_center": "사하구보건소",
    "address": "부산광역시 사하구 서포로30번길 42",
    "lat": 35.080297,
    "lng": 128.988869
  },
  {
    "name": "상지어린이집",
    "health_center": "사하구보건소",
    "address": "부산광역시 사하구 장림시장5길 256",
    "lat": 35.079016,
    "lng": 128.971368
  },
  {
    "name": "성균관어린이집",
    "health_center": "사하구보건소",
    "address": "부산광역시 사하구 윤공단로17번길98",
    "lat": 35.055925,
    "lng": 128.966794
  },
  {
    "name": "세아꿈어린이집",
    "health_center": "사하구보건소",
    "address": "부산광역시 사하구 감천로73번길 66(감천동)",
    "lat": 35.092309,
    "lng": 128.999165
  },
  {
    "name": "아이숲어린이집",
    "health_center": "사하구보건소",
    "address": "부산광역시 사하구 낙동대로 324번길 16, 1층(괴정동)",
    "lat": 35.100801,
    "lng": 128.98248
  },
  {
    "name": "은비숲어린이집",
    "health_center": "사하구보건소",
    "address": "부산광역시 사하구 다대로 524번길20",
    "lat": 35.059983,
    "lng": 128.971907
  },
  {
    "name": "이편한어린이집",
    "health_center": "사하구보건소",
    "address": "부산광역시 사하구 서포로30번길 26 e편한세상사하1차아파트",
    "lat": 35.079692,
    "lng": 128.986999
  },
  {
    "name": "이편한햇살어린이집",
    "health_center": "사하구보건소",
    "address": "부산광역시 사하구 서포로 30번길 12 관리동 이편한햇살어린이집",
    "lat": 35.081588,
    "lng": 128.984924
  },
  {
    "name": "장림어린이집",
    "health_center": "사하구보건소",
    "address": "부산광역시 사하구 장림 번영로 28번길 33",
    "lat": 35.079173,
    "lng": 128.967993
  },
  {
    "name": "조은어린이집",
    "health_center": "사하구보건소",
    "address": "부산광역시 사하구 하신중앙로 22번길 24",
    "lat": 35.081635,
    "lng": 128.965923
  },
  {
    "name": "초록꿈어린이집",
    "health_center": "사하구보건소",
    "address": "부산광역시 사하구 을숙도대로 744 사회복지관 1층 초록꿈어린이집",
    "lat": 35.085659,
    "lng": 128.986713
  },
  {
    "name": "하늘유치원",
    "health_center": "사하구보건소",
    "address": "부산광역시 사하구 하신중앙로 170",
    "lat": 35.09445,
    "lng": 128.96442
  },
  {
    "name": "햇님어린이집",
    "health_center": "사하구보건소",
    "address": "부산광역시 사하구 승학로 31번길 1 (당리동)",
    "lat": 35.106965,
    "lng": 128.972714
  },
  {
    "name": "효원어린이집",
    "health_center": "사하구보건소",
    "address": "부산광역시 사하구 괴정로 267",
    "lat": 35.097057,
    "lng": 128.990576
  },
  {
    "name": "부산천사의학교",
    "health_center": "사하구보건소",
    "address": "부산광역시 사하구 오작로88번길 30",
    "lat": 35.100702,
    "lng": 129.003629
  },
  {
    "name": "신평초등학교",
    "health_center": "사하구보건소",
    "address": "부산광역시 사하구 장평로299번안길 19",
    "lat": 35.094342,
    "lng": 128.97153
  },
  {
    "name": "꼬망쎄어린이집",
    "health_center": "서구보건소",
    "address": "부산광역시 서구 대영로73번길 76 (동대신동3가)",
    "lat": 35.11378,
    "lng": 129.01759
  },
  {
    "name": "노틀담유치원",
    "health_center": "서구보건소",
    "address": "부산광역시 서구 임시수도기념로 61-32",
    "lat": 35.102876,
    "lng": 129.016682
  },
  {
    "name": "놀이아유치원",
    "health_center": "서구보건소",
    "address": "부산광역시 서구 부용로32번길 9",
    "lat": 35.107266,
    "lng": 129.018374
  },
  {
    "name": "대신어린이집",
    "health_center": "서구보건소",
    "address": "부산광역시 서구 구덕로333번길 41-8 대신어린이집 (서대신동3가)",
    "lat": 35.112389,
    "lng": 129.014022
  },
  {
    "name": "마리아유치원",
    "health_center": "서구보건소",
    "address": "부산광역시 서구 구덕로333번길 36",
    "lat": 35.11299,
    "lng": 129.014401
  },
  {
    "name": "송도힐스테이트어린이집",
    "health_center": "서구보건소",
    "address": "부산광역시 서구 송도해변로 192 송도힐스테이트이진베이시티 B동 4층",
    "lat": 35.077412,
    "lng": 129.023455
  },
  {
    "name": "수피아어린이집",
    "health_center": "서구보건소",
    "address": "부산광역시 서구 서대신동3가 대티로 161 (서대신동3가, 대신롯데캐슬 101동 201호)",
    "lat": 35.114124,
    "lng": 129.010588
  },
  {
    "name": "신광어린이집",
    "health_center": "서구보건소",
    "address": "부산광역시 서구 보수대로210번길 8 (동대신동2가)",
    "lat": 35.114046,
    "lng": 129.021006
  },
  {
    "name": "자연누리어린이집",
    "health_center": "서구보건소",
    "address": "부산광역시 서구 보수대로188번길 15 (동대신동2가)",
    "lat": 35.112491,
    "lng": 129.02221
  },
  {
    "name": "토성초등학교병설유치원",
    "health_center": "서구보건소",
    "address": "부산광역시 서구 구덕로134번길 45",
    "lat": 35.099064,
    "lng": 129.021178
  },
  {
    "name": "토토어린이집",
    "health_center": "서구보건소",
    "address": "부산광역시 서구 보수대로320번길 11 유진대림아파트 110호 (서대신동3가)",
    "lat": 35.120807,
    "lng": 129.011705
  },
  {
    "name": "푸른유치원",
    "health_center": "서구보건소",
    "address": "부산광역시 서구 남부민로 34",
    "lat": 35.084686,
    "lng": 129.023044
  },
  {
    "name": "풀잎어린이집",
    "health_center": "서구보건소",
    "address": "부산광역시 서구 해돋이로 23, 폴리페아파트 102동, 1층",
    "lat": 35.082426,
    "lng": 129.019885
  },
  {
    "name": "한마음어린이집",
    "health_center": "서구보건소",
    "address": "부산광역시 서구 망양로193번길 104 서구종합사회복지관",
    "lat": 35.111081,
    "lng": 129.026057
  },
  {
    "name": "구덕초등학교",
    "health_center": "서구보건소",
    "address": "부산광역시 서구 보수대로 312",
    "lat": 35.120431,
    "lng": 129.012765
  },
  {
    "name": "대신초등학교",
    "health_center": "서구보건소",
    "address": "부산광역시 서구 대신로 63",
    "lat": 35.115511,
    "lng": 129.01185
  },
  {
    "name": "곰솔어린이집",
    "health_center": "수영구보건소",
    "address": "부산광역시 수영구 광일로 36",
    "lat": 35.1627,
    "lng": 129.110203
  },
  {
    "name": "공립함박어린이집",
    "health_center": "수영구보건소",
    "address": "부산광역시 수영구 연수로275번길 30",
    "lat": 35.174532,
    "lng": 129.101015
  },
  {
    "name": "금련사유치원",
    "health_center": "수영구보건소",
    "address": "부산광역시 수영구 광일로 71",
    "lat": 35.162695,
    "lng": 129.106097
  },
  {
    "name": "남천더샵어린이집",
    "health_center": "수영구보건소",
    "address": "부산광역시 수영구 수영로 389",
    "lat": 35.14233,
    "lng": 129.10605
  },
  {
    "name": "동원자연어린이집",
    "health_center": "수영구보건소",
    "address": "부산광역시 수영구 수미로14번길 35 수영강동원로얄듀크아파트 107동1층",
    "lat": 35.172243,
    "lng": 129.112104
  },
  {
    "name": "망미이진캐스빌어린이집",
    "health_center": "수영구보건소",
    "address": "부산광역시 수영구 망미로30번길 51, 105동 L층(망미동, 망미이진캐스빌)",
    "lat": 35.169967,
    "lng": 129.100187
  },
  {
    "name": "바람개비어린이집",
    "health_center": "수영구보건소",
    "address": "부산광역시 수영구 장대골로 27번길 10",
    "lat": 35.158824,
    "lng": 129.110378
  },
  {
    "name": "부산중앙어린이집",
    "health_center": "수영구보건소",
    "address": "부산광역시 수영구 황령산로 42",
    "lat": 35.14959,
    "lng": 129.106801
  },
  {
    "name": "사랑가득어린이집",
    "health_center": "수영구보건소",
    "address": "부산광역시 수영구 민락로33번길 4",
    "lat": 35.158122,
    "lng": 129.121124
  },
  {
    "name": "쌍용예가어린이집",
    "health_center": "수영구보건소",
    "address": "부산광역시 수영구 광안로 20 쌍용예가디오션 105동(관리동)",
    "lat": 35.154895,
    "lng": 129.116105
  },
  {
    "name": "성모영아전담어린이집",
    "health_center": "수영구보건소",
    "address": "부산광역시 수영구 망미로7번길 17",
    "lat": 35.171658,
    "lng": 129.106056
  },
  {
    "name": "센텀비스타동원1차어린이집",
    "health_center": "수영구보건소",
    "address": "부산광역시 수영구 수영로 754 센텀비스타동원1차아파트 관리동",
    "lat": 35.167808,
    "lng": 129.120112
  },
  {
    "name": "수영중앙어린이집",
    "health_center": "수영구보건소",
    "address": "부산광역시 수영구 망미번영로74번길 88",
    "lat": 35.172803,
    "lng": 129.115273
  },
  {
    "name": "오션그린어린이집",
    "health_center": "수영구보건소",
    "address": "부산광역시 수영구 광안해변로326번길 31 오션테라스4단지",
    "lat": 35.155588,
    "lng": 129.130018
  },
  {
    "name": "은솔어린이집",
    "health_center": "수영구보건소",
    "address": "부산광역시 수영구 구락로25번길 16 (수영동)",
    "lat": 35.171135,
    "lng": 129.11939
  },
  {
    "name": "이편한어린이집",
    "health_center": "수영구보건소",
    "address": "부산광역시 수영구 좌수영로 192 관리동",
    "lat": 35.18135,
    "lng": 129.116796
  },
  {
    "name": "정다운어린이집",
    "health_center": "수영구보건소",
    "address": "부산광역시 수영구 장대골로52번길 5 (광안동)",
    "lat": 35.159971,
    "lng": 129.107784
  },
  {
    "name": "초예어린이집",
    "health_center": "수영구보건소",
    "address": "부산광역시 수영구 광일로29번길 16 (광안동)",
    "lat": 35.161846,
    "lng": 129.110454
  },
  {
    "name": "혜승어린이집",
    "health_center": "수영구보건소",
    "address": "부산광역시 수영구 과정로91번가길 10-8",
    "lat": 35.179811,
    "lng": 129.105798
  },
  {
    "name": "민안초등학교",
    "health_center": "수영구보건소",
    "address": "부산광역시 수영구 감포로38번길 33",
    "lat": 35.163068,
    "lng": 129.121212
  },
  {
    "name": "배산초등학교",
    "health_center": "수영구보건소",
    "address": "부산광역시 수영구 망미배산로48번길 85-15",
    "lat": 35.177458,
    "lng": 129.102796
  },
  {
    "name": "ABC어린이집",
    "health_center": "연제구보건소",
    "address": "부산광역시 연제구 월드컵대로165번길 51 (연산동)",
    "lat": 35.184868,
    "lng": 129.076834
  },
  {
    "name": "LG토현영아전담어린이집",
    "health_center": "연제구보건소",
    "address": "부산광역시 연제구 고분로 200 103동 101호(연산동, 연산엘지아파트)",
    "lat": 35.184226,
    "lng": 129.103214
  },
  {
    "name": "거제센트럴자이어린이집",
    "health_center": "연제구보건소",
    "address": "부산광역시 연제구 법원북로 93 거제센트럴자이아파트",
    "lat": 35.193278,
    "lng": 129.076188
  },
  {
    "name": "곰두리어린이집",
    "health_center": "연제구보건소",
    "address": "부산광역시 연제구 중앙대로1150번길 15?부산광역시장애인종합복지관 3층",
    "lat": 35.190681,
    "lng": 129.081581
  },
  {
    "name": "공립연제구비스타동원어린이집",
    "health_center": "연제구보건소",
    "address": "부산광역시 연제구 연제로 30 비스타동원아파트",
    "lat": 35.179334,
    "lng": 129.07671
  },
  {
    "name": "대양어린이집",
    "health_center": "연제구보건소",
    "address": "부산광역시 연제구 안연로8번길 88 (연산동)",
    "lat": 35.18836,
    "lng": 129.105866
  },
  {
    "name": "둥지어린이집",
    "health_center": "연제구보건소",
    "address": "부산광역시 연제구 거제대로124번길 22",
    "lat": 35.179061,
    "lng": 129.070257
  },
  {
    "name": "디즈니영아전담어린이집",
    "health_center": "연제구보건소",
    "address": "부산광역시 연제구 해맞이로 23 112동 103호(거제동, 거제유림아시아드아파트)",
    "lat": 35.178556,
    "lng": 129.064712
  },
  {
    "name": "레이카운티1단지어린이집",
    "health_center": "연제구보건소",
    "address": "부산광역시 연제구 아시아드대로 39",
    "lat": 35.189906,
    "lng": 129.066043
  },
  {
    "name": "레이카운티3단지어린이집",
    "health_center": "연제구보건소",
    "address": "부산광역시 연제구 아시아드대로 39 레이카운티3단지아파트",
    "lat": 35.189906,
    "lng": 129.066043
  },
  {
    "name": "레이카운티5단지어린이집",
    "health_center": "연제구보건소",
    "address": "부산광역시 연제구 아시아드대로 39 레이카운티아파트 5단지 관리동",
    "lat": 35.189906,
    "lng": 129.066043
  },
  {
    "name": "롯데캐슬골드포레어린이집",
    "health_center": "연제구보건소",
    "address": "부산광역시 연제구 황령산로 615 롯데캐슬골드포레아파트",
    "lat": 35.174011,
    "lng": 129.081831
  },
  {
    "name": "메르빌아이어린이집",
    "health_center": "연제구보건소",
    "address": "부산광역시 연제구 연수로 110 (연산동, 연산 경동메르빌아파트)",
    "lat": 35.174667,
    "lng": 129.08319
  },
  {
    "name": "부산검찰어린이집",
    "health_center": "연제구보건소",
    "address": "부산광역시 연제구 법원로 15 (거제동)",
    "lat": 35.191299,
    "lng": 129.072075
  },
  {
    "name": "부산경상대학교부속유치원",
    "health_center": "연제구보건소",
    "address": "부산광역시 연제구 고분로 170, 부산경상대학교 진리관1층 부속유치원",
    "lat": 35.183789,
    "lng": 129.100977
  },
  {
    "name": "브라운스톤연제어린이집",
    "health_center": "연제구보건소",
    "address": "부산광역시 연제구 연제로8번길 29",
    "lat": 35.17763,
    "lng": 129.078139
  },
  {
    "name": "선재어린이집",
    "health_center": "연제구보건소",
    "address": "부산광역시 연제구 묘봉산로 31-1 혜원정사내선재어린이집 (연산동)",
    "lat": 35.183598,
    "lng": 129.090421
  },
  {
    "name": "연산더샵어린이집",
    "health_center": "연제구보건소",
    "address": "부산광역시 연제구 연수로 130 (연산동, 연산더샵)",
    "lat": 35.173624,
    "lng": 129.084554
  },
  {
    "name": "연산이편한어린이집",
    "health_center": "연제구보건소",
    "address": "부산광역시 연제구 반송로 40",
    "lat": 35.188286,
    "lng": 129.084951
  },
  {
    "name": "연제구행복어린이집",
    "health_center": "연제구보건소",
    "address": "부산광역시 연제구 중앙대로1038번길 40 시청앞 행복주택 204동",
    "lat": 35.17935,
    "lng": 129.078563
  },
  {
    "name": "연제어린이집",
    "health_center": "연제구보건소",
    "address": "부산광역시 연제구 중앙천로19번길 20",
    "lat": 35.176783,
    "lng": 129.082482
  },
  {
    "name": "연제옥스포드어린이집",
    "health_center": "연제구보건소",
    "address": "부산광역시 연제구 해맞이로61번길 49 (거제동)",
    "lat": 35.179461,
    "lng": 129.065478
  },
  {
    "name": "연제힐스테이트연산어린이집",
    "health_center": "연제구보건소",
    "address": "부산광역시 연제구 봉수로 25",
    "lat": 35.17211,
    "lng": 129.08845
  },
  {
    "name": "연천영아전담어린이집",
    "health_center": "연제구보건소",
    "address": "부산광역시 연제구 고분로143번길 41 (연산동)",
    "lat": 35.186705,
    "lng": 129.099752
  },
  {
    "name": "정언어린이집",
    "health_center": "연제구보건소",
    "address": "부산광역시 연제구 연동로 32",
    "lat": 35.186303,
    "lng": 129.093123
  },
  {
    "name": "키즈레일거제역어린이집",
    "health_center": "연제구보건소",
    "address": "부산광역시 연제구 법원남로9번길 17 거제역",
    "lat": 35.189853,
    "lng": 129.074894
  },
  {
    "name": "토곡어린이집",
    "health_center": "연제구보건소",
    "address": "부산광역시 연제구 과정로191번나길 17",
    "lat": 35.186435,
    "lng": 129.105443
  },
  {
    "name": "하나둘어린이집",
    "health_center": "연제구보건소",
    "address": "부산광역시 연제구 여고로14번길 47 (거제동)",
    "lat": 35.192815,
    "lng": 129.066323
  },
  {
    "name": "해님어린이집",
    "health_center": "연제구보건소",
    "address": "부산광역시 연제구 연수로 194",
    "lat": 35.173775,
    "lng": 129.091905
  },
  {
    "name": "현대홈타운어린이집",
    "health_center": "연제구보건소",
    "address": "부산광역시 연제구 법원북로 16 관리동 3호 (거제동 현대2차 현대홈타운 )",
    "lat": 35.19298,
    "lng": 129.0682
  },
  {
    "name": "연신초등학교",
    "health_center": "연제구보건소",
    "address": "부산광역시 연제구 신금로23번길 30",
    "lat": 35.192267,
    "lng": 129.093382
  },
  {
    "name": "창신초등학교",
    "health_center": "연제구보건소",
    "address": "부산광역시 연제구 종합운동장로12번길 15",
    "lat": 35.19281,
    "lng": 129.065851
  },
  {
    "name": "고신대학교부설어린이집",
    "health_center": "영도구보건소",
    "address": "부산광역시 영도구 와치로 194(동삼동)",
    "lat": 35.079755,
    "lng": 129.062644
  },
  {
    "name": "꿈동산어린이집",
    "health_center": "영도구보건소",
    "address": "부산광역시 영도구 동삼로 85-9(동삼동)",
    "lat": 35.081006,
    "lng": 129.070302
  },
  {
    "name": "녹야어린이집",
    "health_center": "영도구보건소",
    "address": "부산광역시 영도구 와치로 233(동삼동)",
    "lat": 35.07665,
    "lng": 129.067323
  },
  {
    "name": "동심어린이집",
    "health_center": "영도구보건소",
    "address": "부산광역시 영도구 청학로80번길 2 (청학동)",
    "lat": 35.095545,
    "lng": 129.060761
  },
  {
    "name": "롯데캐슬블루오션어린이집",
    "health_center": "영도구보건소",
    "address": "부산광역시 영도구 절영로 524(동삼동, 롯데캐슬 블루오션)",
    "lat": 35.072451,
    "lng": 129.07336
  },
  {
    "name": "벧엘영아전담어린이집",
    "health_center": "영도구보건소",
    "address": "부산광역시 영도구 절영로93번길 32-2(영선동2가)",
    "lat": 35.08769,
    "lng": 129.040672
  },
  {
    "name": "부산오션시티푸르지오어린이집",
    "health_center": "영도구보건소",
    "address": "부산광역시 영도구 동삼오션로 30",
    "lat": 35.06934,
    "lng": 129.083519
  },
  {
    "name": "브래뉴어린이집",
    "health_center": "영도구보건소",
    "address": "부산광역시 영도구 태종로 260 신도브래뉴아파트 관리동",
    "lat": 35.098003,
    "lng": 129.056355
  },
  {
    "name": "삼진어린이집",
    "health_center": "영도구보건소",
    "address": "부산광역시 영도구 산정길 138(신선동3가)",
    "lat": 35.08118,
    "lng": 129.04755
  },
  {
    "name": "상리자연어린이집",
    "health_center": "영도구보건소",
    "address": "부산광역시 영도구 상리로 63-16(동삼동)",
    "lat": 35.085962,
    "lng": 129.068384
  },
  {
    "name": "센트럴에일린의뜰어린이집",
    "health_center": "영도구보건소",
    "address": "부산광역시 영도구 태종로 172 센트럴 에일린의 뜰 아파트 관리동",
    "lat": 35.093438,
    "lng": 129.048889
  },
  {
    "name": "영도초등학교어린이집",
    "health_center": "영도구보건소",
    "address": "부산광역시 영도구 꿈나무길 41(신선동1가)",
    "lat": 35.089871,
    "lng": 129.045544
  },
  {
    "name": "영선어린이집",
    "health_center": "영도구보건소",
    "address": "부산광역시 영도구 향토길 22(영선동4가)",
    "lat": 35.079607,
    "lng": 129.046589
  },
  {
    "name": "영지어린이집",
    "health_center": "영도구보건소",
    "address": "부산광역시 영도구 와치로 2-13(청학동)",
    "lat": 35.089836,
    "lng": 129.057781
  },
  {
    "name": "오션라이프에일린의뜰1단지어린이집",
    "health_center": "영도구보건소",
    "address": "부산광역시 영도구 태종로 611 오션라이프에일린의뜰1단지 관리동",
    "lat": 35.075597,
    "lng": 129.074552
  },
  {
    "name": "와치어린이집",
    "health_center": "영도구보건소",
    "address": "부산광역시 영도구 청학서로 11(청학동)",
    "lat": 35.092025,
    "lng": 129.057057
  },
  {
    "name": "원광어린이집",
    "health_center": "영도구보건소",
    "address": "부산광역시 영도구 태종로409번길 16-5(청학동)",
    "lat": 35.091001,
    "lng": 129.06718
  },
  {
    "name": "은혜어린이집",
    "health_center": "영도구보건소",
    "address": "부산광역시 영도구 봉래쉼터길 59(봉래동5가)",
    "lat": 35.094029,
    "lng": 129.052644
  },
  {
    "name": "자비유치원",
    "health_center": "영도구보건소",
    "address": "부산광역시 영도구 일산봉로 49",
    "lat": 35.086394,
    "lng": 129.064528
  },
  {
    "name": "절영어린이집",
    "health_center": "영도구보건소",
    "address": "부산광역시 영도구 함지로 33-10(동삼동)",
    "lat": 35.072079,
    "lng": 129.0625
  },
  {
    "name": "지성어린이집",
    "health_center": "영도구보건소",
    "address": "부산광역시 영도구 아랫서발길 58(동삼동)",
    "lat": 35.066897,
    "lng": 129.078992
  },
  {
    "name": "한국해양어린이집",
    "health_center": "영도구보건소",
    "address": "부산광역시 영도구 태종로 727 한국해양어린이집",
    "lat": 35.073377,
    "lng": 129.080372
  },
  {
    "name": "해돋이어린이집",
    "health_center": "영도구보건소",
    "address": "부산광역시 영도구 절영로7번길 4(봉래동1가)",
    "lat": 35.093378,
    "lng": 129.040657
  },
  {
    "name": "효성어린이집",
    "health_center": "영도구보건소",
    "address": "부산광역시 영도구 청학로 35(청학동)",
    "lat": 35.092041,
    "lng": 129.059611
  },
  {
    "name": "부산영선중학교",
    "health_center": "영도구보건소",
    "address": "부산광역시 영도구 영상길 83(신선동3가)",
    "lat": 35.085456,
    "lng": 129.04437
  },
  {
    "name": "중리초등학교",
    "health_center": "영도구보건소",
    "address": "부산광역시 영도구 와치로 286(동삼동)",
    "lat": 35.074236,
    "lng": 129.070587
  },
  {
    "name": "청동초등학교",
    "health_center": "영도구보건소",
    "address": "부산광역시 영도구 태종로 422번길 51",
    "lat": 35.088252,
    "lng": 129.067459
  },
  {
    "name": "노틀담어린이집",
    "health_center": "중구보건소",
    "address": "부산광역시 중구 망양로 309",
    "lat": 35.105803,
    "lng": 129.028319
  },
  {
    "name": "다사랑어린이집",
    "health_center": "중구보건소",
    "address": "부산광역시 중구 보수대로 140번길 61 보수동 주민센터 3층",
    "lat": 35.106135,
    "lng": 129.024584
  },
  {
    "name": "보현어린이집",
    "health_center": "중구보건소",
    "address": "부산광역시 중구 흑교로31번길 34-1",
    "lat": 35.102541,
    "lng": 129.021525
  },
  {
    "name": "부산세관어린이집",
    "health_center": "중구보건소",
    "address": "부산광역시 중구 충장대로 20, 별관 2층",
    "lat": 35.1046,
    "lng": 129.038533
  },
  {
    "name": "성모희보어린이집",
    "health_center": "중구보건소",
    "address": "부산광역시 중구 중구로 97번길 7",
    "lat": 35.10582,
    "lng": 129.030945
  },
  {
    "name": "숲속리더유치원",
    "health_center": "중구보건소",
    "address": "부산광역시 중구 책방골목길 17-12",
    "lat": 35.103763,
    "lng": 129.027368
  },
  {
    "name": "숲속어린이집",
    "health_center": "중구보건소",
    "address": "부산광역시 중구 고가길 40",
    "lat": 35.10377,
    "lng": 129.027692
  },
  {
    "name": "남성여자고등학교",
    "health_center": "중구보건소",
    "address": "부산광역시 중구 샘길 14",
    "lat": 35.104775,
    "lng": 129.033401
  },
  {
    "name": "LG서머힐어린이집",
    "health_center": "해운대구보건소",
    "address": "부산광역시 해운대구 대천로 103번길 61, 119동 101호",
    "lat": 35.180689,
    "lng": 129.173564
  },
  {
    "name": "경동리인뷰2차어린이집",
    "health_center": "해운대구보건소",
    "address": "부산광역시 해운대구 구남로 21 203동 3층(우동, 경동리인뷰2차)",
    "lat": 35.16309,
    "lng": 129.161012
  },
  {
    "name": "꾸러기어린이집",
    "health_center": "해운대구보건소",
    "address": "부산광역시 해운대구 대천로 187, 화목아파트 108동 103호",
    "lat": 35.172133,
    "lng": 129.179003
  },
  {
    "name": "늘사랑어린이집",
    "health_center": "해운대구보건소",
    "address": "부산광역시 해운대구 세실로 138 관리동(좌동,롯데3차아파트)",
    "lat": 35.176615,
    "lng": 129.177099
  },
  {
    "name": "다솔어린이집",
    "health_center": "해운대구보건소",
    "address": "부산광역시 해운대구 재반로 84번길 96-8",
    "lat": 35.18801,
    "lng": 129.129908
  },
  {
    "name": "더푸른유치원",
    "health_center": "해운대구보건소",
    "address": "부산광역시 해운대구 좌동순환로 433번길 30-3",
    "lat": 35.164183,
    "lng": 129.181484
  },
  {
    "name": "동해어린이집",
    "health_center": "해운대구보건소",
    "address": "부산광역시 해운대구 송정2로 67 (송정동)",
    "lat": 35.194402,
    "lng": 129.206918
  },
  {
    "name": "둘리어린이집",
    "health_center": "해운대구보건소",
    "address": "부산광역시 해운대구 대천로 103번길47 108-101(좌동, 대림1차)",
    "lat": 35.178603,
    "lng": 129.1731
  },
  {
    "name": "드파인센텀어린이집",
    "health_center": "해운대구보건소",
    "address": "부산광역시 해운대구 선수촌로 30 관리동(반여동, 드파인센텀)",
    "lat": 35.197089,
    "lng": 129.118967
  },
  {
    "name": "마루영재어린이집",
    "health_center": "해운대구보건소",
    "address": "부산광역시 해운대구 수영강변대로 382 107동 1층(반여동, 센텀피오레1차)",
    "lat": 35.193164,
    "lng": 129.115542
  },
  {
    "name": "반송1동어린이집",
    "health_center": "해운대구보건소",
    "address": "부산광역시 해운대구 반송순환로 129",
    "lat": 35.222569,
    "lng": 129.152862
  },
  {
    "name": "반여2동어린이집",
    "health_center": "해운대구보건소",
    "address": "부산광역시 해운대구 재반로226번길 13-73",
    "lat": 35.198244,
    "lng": 129.131861
  },
  {
    "name": "반여3동어린이집",
    "health_center": "해운대구보건소",
    "address": "부산광역시 해운대구 재반로256번길 13-61",
    "lat": 35.200879,
    "lng": 129.132309
  },
  {
    "name": "백조어린이집",
    "health_center": "해운대구보건소",
    "address": "부산광역시 해운대구 우동1로 85번길 16",
    "lat": 35.168445,
    "lng": 129.155552
  },
  {
    "name": "비스타동원어린이집",
    "health_center": "해운대구보건소",
    "address": "부산광역시 해운대구 해운대로 663 (우동, 해운대비스타동원아파트)",
    "lat": 35.165896,
    "lng": 129.162176
  },
  {
    "name": "쁘띠뽀레유치원",
    "health_center": "해운대구보건소",
    "address": "부산광역시 해운대구 양운로 182",
    "lat": 35.179584,
    "lng": 129.170558
  },
  {
    "name": "센텀동심어린이집",
    "health_center": "해운대구보건소",
    "address": "부산광역시 해운대구 센텀중앙로 145 센텀파크1차아파트 관리동",
    "lat": 35.176756,
    "lng": 129.123595
  },
  {
    "name": "솔밭어린이집",
    "health_center": "해운대구보건소",
    "address": "부산광역시 해운대구 신반송로 159 반석종합사회복지관내 (반송동)",
    "lat": 35.228506,
    "lng": 129.162516
  },
  {
    "name": "송정해송어린이집",
    "health_center": "해운대구보건소",
    "address": "부산광역시 해운대구 해운대로 1188 204동 1층(송정동, 송정2휴먼시아)",
    "lat": 35.191136,
    "lng": 129.205673
  },
  {
    "name": "신도어린이집",
    "health_center": "해운대구보건소",
    "address": "부산광역시 해운대구 대천로103번길 29 507동 102호(좌동, 대동타운)",
    "lat": 35.17681,
    "lng": 129.172962
  },
  {
    "name": "아이별어린이집",
    "health_center": "해운대구보건소",
    "address": "부산광역시 해운대구 대천로 205 벽산아파트관리동 1층",
    "lat": 35.170053,
    "lng": 129.180129
  },
  {
    "name": "우2동어린이집",
    "health_center": "해운대구보건소",
    "address": "부산광역시 해운대구 해운대로383번가길 3-9 우2동어린이집 (우동)",
    "lat": 35.171528,
    "lng": 129.13999
  },
  {
    "name": "인천꿈나무어린이집",
    "health_center": "해운대구보건소",
    "address": "부산광역시 해운대구 재반로12번길 16",
    "lat": 35.179989,
    "lng": 129.127951
  },
  {
    "name": "인천유치원",
    "health_center": "해운대구보건소",
    "address": "부산광역시 해운대구 재반로12번길 16",
    "lat": 35.179989,
    "lng": 129.127951
  },
  {
    "name": "자이2차어린이집",
    "health_center": "해운대구보건소",
    "address": "부산광역시 해운대구 해운대로469번길 110, 3층 주민공동시설",
    "lat": 35.168583,
    "lng": 129.144239
  },
  {
    "name": "재송어린이집",
    "health_center": "해운대구보건소",
    "address": "부산광역시 해운대구 재반로 50번길 22",
    "lat": 35.183746,
    "lng": 129.127343
  },
  {
    "name": "재송유치원",
    "health_center": "해운대구보건소",
    "address": "부산광역시 해운대구 재반로 50번길 22",
    "lat": 35.183746,
    "lng": 129.127343
  },
  {
    "name": "좋은씨앗어린이집",
    "health_center": "해운대구보건소",
    "address": "부산광역시 해운대구 재반로103번가길 64-1",
    "lat": 35.190307,
    "lng": 129.126743
  },
  {
    "name": "파랑꽃어린이집",
    "health_center": "해운대구보건소",
    "address": "부산광역시 해운대구 반여로 185번길 31-21",
    "lat": 35.207476,
    "lng": 129.126478
  },
  {
    "name": "해운대래미안어린이집",
    "health_center": "해운대구보건소",
    "address": "부산광역시 해운대구 좌동순환로 402 관리동(중동,래미안해운대아파트)",
    "lat": 35.16377,
    "lng": 129.176558
  },
  {
    "name": "해운대자연유치원",
    "health_center": "해운대구보건소",
    "address": "부산광역시 해운대구 대천로 103번길 61",
    "lat": 35.180691,
    "lng": 129.173536
  },
  {
    "name": "해운대푸른어린이집",
    "health_center": "해운대구보건소",
    "address": "부산광역시 해운대구 세실로 7 (좌동)",
    "lat": 35.165397,
    "lng": 129.179717
  },
  {
    "name": "효원어린이집",
    "health_center": "해운대구보건소",
    "address": "부산광역시 해운대구 세실로 158 동부아파트내 (좌4동)",
    "lat": 35.178164,
    "lng": 129.177912
  },
  {
    "name": "반산초등학교",
    "health_center": "해운대구보건소",
    "address": "부산광역시 해운대구 재반로 171",
    "lat": 35.193583,
    "lng": 129.128575
  },
  {
    "name": "삼어초등학교",
    "health_center": "해운대구보건소",
    "address": "부산광역시 해운대구 삼어로91번길 73",
    "lat": 35.208655,
    "lng": 129.11593
  }
]